[{"name":"madang courtyard","location":{"lat":34.0630037,"lng":-118.3100826}},{"name":"calabasas commons","location":{"lat":34.153653,"lng":-118.6457892}},{"name":"chik-fil-a carson","location":{"lat":30.1325587,"lng":-95.5529609}},{"name":"northridge mall","location":{"lat":36.7166802,"lng":-121.657768}},{"name":"toluca lake","location":{"lat":34.1501794,"lng":-118.3549609}},{"name":"downtown alhambra","location":{"lat":34.0934965,"lng":-118.1268172}},{"name":"old town pasadena","location":{"lat":34.1460422,"lng":-118.1499439}},{"name":"santa anita mall","location":{"lat":34.1343827,"lng":-118.0515692}},{"name":"houghton park, los angeles","location":{"lat":33.8693963,"lng":-118.1810169}},{"name":"highland park, los angeles","location":{"lat":34.115521,"lng":-118.1843217}},{"name":"katz ymca","location":{"lat":34.0433387,"lng":-118.459259}},{"name":"Little Tokyo","location":{"lat":34.0523392,"lng":-118.2395052}},{"name":"topanga mall","location":{"lat":34.1901855,"lng":-118.6038464}}]