[{"name":"toluca lake","location":{"lat":34.1501794,"lng":-118.3549609}},{"name":"houghton park, los angeles","location":{"lat":33.8693963,"lng":-118.1810169}},{"name":"topanga mall","location":{"lat":34.1901855,"lng":-118.6038464}},{"name":"madang courtyard","location":{"lat":34.0630037,"lng":-118.3100826}},{"name":"katz ymca","location":{"lat":34.0433387,"lng":-118.459259}},{"name":"calabasas commons","location":{"lat":34.153653,"lng":-118.6457892}},{"name":"Union Station, Los Angeles","location":{"lat":34.056219,"lng":-118.2365021}},{"name":"northridge mall","location":{"lat":34.2382889,"lng":-118.5550537}},{"name":"santa anita mall","location":{"lat":34.1343827,"lng":-118.0515692}},{"name":"old town pasadena","location":{"lat":34.1460422,"lng":-118.1499439}},{"name":"highland park, los angeles","location":{"lat":34.115521,"lng":-118.1843217}},{"name":"chik-fil-a carson","location":{"lat":33.8452484,"lng":-118.2649834}},{"name":"downtown alhambra","location":{"lat":34.0934965,"lng":-118.1268172}},{"name":"Little Tokyo","location":{"lat":34.0523392,"lng":-118.2395052}},{"name":"Thai Town","location":{"lat":34.1018097,"lng":-118.3035723}}]